#------------------------------------------------------------
~VERSION INFORMATION
VERS.               2.0  :CWLS LOG ASCII STANDARD - VERSION 2.0
WRAP.                NO  :ONE LINE PER DEPTH STEP
#------------------------------------------------------------
~WELL INFORMATION
STRT.M          100.000  :FIRST INDEX VALUE
STOP.M          150.000  :LAST INDEX VALUE
STEP.M         0.100000  :STEP
NULL.           -999.25  :NULL VALUE
COMP. 		 ALT sa	 :COMP
WELL.          Well 123  :WELL
FLD.    North Extension  :FLD
LOC.                     :LOC
SRVC.   Wireline Logging Ltd :SRVC
STAT.        Luxembourg  :STAT
CNTY.          Diekirch  :CNTY
DATE.       24-Jun-2013  :DATE
API.                     :API
BIT.IN 		 4.5	 :COMP
#------------------------------------------------------------
~CURVE INFORMATION
DEPT.M                   :DEPTH
CAL.MM                   :CAL
DENS.GR/CCM              :DENS
GR.API                   :GR
DTP.US/FT                :DTP
#------------------------------------------------------------
~PARAMETER INFORMATION
TITL.     Coal Composite :Plot Title
PDAT. 	  Ground Level   :Permanent Datum
RUN.	  Composite	 :Run Number	
#------------------------------------------------------------
~OTHER INFORMATION

#------------------------------------------------------------
~A   DEPT[M]         CAL        DENS          GR         DTP
# ...
     126.400     119.540     2.38800     118.315     98.4000
     126.500     119.463     2.33600     130.875     101.100
     126.600     119.520     2.32700     118.625     107.100
     126.700     119.693     2.33100     121.416     108.300
     126.800     119.531     2.39300     114.438     103.500
     126.900     118.755     2.44800     94.4350     102.000
     127.000     118.552     2.40200     96.1400     104.100
     127.100     118.638     2.38000     97.3810     103.500
     127.200     118.586     2.43100     127.774     97.8000
     127.300     118.649     2.41700     73.3460     86.7000
     127.400     118.944     2.38500     79.2380     77.4000
     127.500     120.154     2.43000     61.5610     78.9000
     127.600     120.198     2.45900     84.9760     87.6000
     127.700     120.312     2.41600     82.9600     100.800
     127.800     120.364     2.36900     98.6210     109.200
     127.900     119.992     2.28600     97.3810     109.800
     128.000     120.364     2.25900     116.919     109.500
     128.100     120.023     2.25800     114.283     111.000
     128.200     119.407     2.30200     144.366     113.400
     128.300     119.384     2.37100     99.2420     109.500
     128.400     119.246     2.39200     157.546     105.000
     128.500     119.346     2.37600     119.710     104.700
     128.600     119.402     2.39000     130.410     102.000
     128.700     119.250     2.40100     150.258     105.300
     128.800     119.510     2.36700     117.384     107.400
     128.900     119.171     2.40300     84.0450     105.330
     129.000     118.826     2.40700     130.720     105.000
     129.100     118.629     2.39800     112.577     104.100
     129.200     118.666     2.42500     96.2960     103.200
     129.300     118.656     2.39900     127.464     105.000
     129.400     118.553     2.46200     124.362     106.500
     129.500     118.467     2.43700     129.945     104.400
     129.600     118.450     2.36000     123.742     103.500
     129.700     118.433     2.41600     103.584     104.700
     129.800     118.441     2.38300     126.998     104.700
     129.900     118.536     2.37600     132.736     101.400
     130.000     118.477     2.38100     110.717     103.200
     130.100     118.533     2.39600     101.878     106.200
     130.200     118.414     2.38000     84.8210     107.700
     130.300     118.582     2.34400     121.571     106.800
     130.400     118.536     2.34200     89.4730     106.500
     130.500     118.520     2.33600     114.438     105.300
     130.600     118.527     2.36400     143.745     107.700
     130.700     118.422     2.41300     107.925     109.200
     130.800     118.483     2.39900     112.732     104.130
     130.900     119.272     2.35600     112.267     103.800
     131.000     119.477     2.40900     134.286     108.900
     131.100     119.406     2.39800     100.172     108.000
     131.200     120.332     2.39300     124.207     107.430
     131.300     120.424     2.36200     118.005     109.500
     131.400     120.707     2.35500     124.362     108.300
     131.500     120.829     2.33000     138.473     108.900
     131.600     120.787     2.39200     141.575     107.400
     131.700     120.802     2.39500     119.245     108.300
     131.800     120.830     2.38400     115.369     109.830
     131.900     120.771     2.36500     133.356     109.800
     132.000     121.143     2.29100     131.495     117.900
     132.100     123.085     2.30700     115.679     121.800
     132.200     128.873     2.33000     131.030     115.200
     132.300     118.977     2.27900     116.919     117.300
     132.400     123.936     2.27100     130.875     113.100
     132.500     121.415     2.25000     143.590     113.700
     132.600     146.533     2.32500     159.097     126.300
     132.700     137.802     2.27400     154.600     114.900
     132.800     122.055     2.24000     126.068     114.000
     132.900     117.653     2.17700     150.103     125.700
     133.000     117.711     2.13800     131.495     126.600
     133.100     117.348     2.19100     133.976     121.800
     133.200     117.270     2.29300     121.106     113.400
     133.300     117.322     2.32800     112.112     97.5000
     133.400     117.291     2.41200     106.685     94.2000
     133.500     117.197     2.43000     93.9690     96.9000
     133.600     117.020     2.44000     108.856     96.0000
     133.700     116.987     2.36100     119.400     96.0300
     133.800     116.990     2.43200     125.603     97.2000
     133.900     116.769     2.42000     122.812     96.6000
     134.000     116.801     2.43100     127.309     94.8000
     134.100     116.815     2.46300     109.941     93.3000
     134.200     116.783     2.41400     111.957     91.5000
     134.300     116.938     2.39400     116.609     89.1000
     134.400     118.248     2.35600     100.327     86.4000
     134.500     121.274     2.40600     91.3330     84.6000
     134.600     122.359     2.36000     98.6210     84.3000
     134.700     120.167     2.44100     88.2320     87.9000
     134.800     118.881     2.45700     82.0290     91.2000
     134.900     118.026     2.44700     89.4730     91.5000
     135.000     117.462     2.37200     83.2700     91.2000
     135.100     117.413     2.46500     96.7610     89.7000
     135.200     117.298     2.41000     86.3710     88.2000
     135.300     117.339     2.40700     93.3490     86.1000
     135.400     117.439     2.45600     95.6750     85.8000
     135.500     117.499     2.40400     102.188     88.2000
     135.600     117.498     2.42200     87.7670     87.0000
     135.700     117.471     2.46300     88.2320     87.3000
     135.800     117.408     2.41000     98.9320     88.5000
     135.900     117.490     2.36500     87.6120     88.5000
     136.000     117.410     2.39800     80.6340     87.0000
     136.100     117.053     2.45200     86.3710     87.0000
     136.200     116.928     2.40200     70.8650     87.0000
     136.300     116.853     2.39100     91.4880     88.5000
     136.400     116.815     2.36500     87.3020     88.5000
     136.500     116.886     2.39800     83.7350     88.5000
     136.600     116.853     2.41100     89.7830     87.9000
     136.700     116.847     2.38800     101.568     88.5000
     136.800     116.850     2.36700     65.4370     89.7000
     136.900     116.895     2.36200     95.2100     88.5000
     137.000     116.836     2.34500     82.1850     87.3000
     137.100     116.830     2.39400     107.615     87.0000
     137.200     116.859     2.43200     86.3710     87.0000
     137.300     116.834     2.34600     89.4730     86.7000
     137.400     116.901     2.40200     100.792     85.5000
     137.500     116.884     2.39300     83.4250     86.4000
     137.600     116.815     2.38400     83.7350     87.9000
     137.700     116.709     2.36500     80.9440     87.9000
     137.800     116.725     2.39500     81.0990     88.8000
     137.900     116.784     2.40100     86.6810     88.8000
     138.000     116.660     2.36100     88.2320     90.0000
     138.100     116.737     2.42000     73.6560     90.0000
     138.200     116.753     2.42100     66.3680     89.4000
     138.300     116.778     2.41700     99.2420     89.7000
     138.400     116.809     2.38300     83.2700     88.5000
     138.500     116.774     2.44300     65.5930     85.5000
     138.600     116.725     2.36300     86.0610     78.0000
     138.700     116.642     2.40900     76.4470     76.5000
     138.800     116.762     2.42500     67.2980     76.5000
     138.900     116.589     2.48400     71.3300     76.2000
     139.000     116.733     2.42600     75.5170     79.8000
     139.100     116.890     2.40800     84.2000     85.8000
     139.200     116.777     2.38400     112.422     84.9000
     139.300     116.893     2.35300     92.8840     81.6000
     139.400     116.894     2.40000     84.3550     83.1300
     139.500     116.833     2.39300     75.6720     86.7000
