#------------------------------------------------------------
~VERSION INFORMATION
VERS.               2.0  :CWLS LOG ASCII STANDARD - VERSION 2.0
WRAP.                NO  :ONE LINE PER DEPTH STEP
#------------------------------------------------------------
~WELL INFORMATION
STRT.M          100.000  :FIRST INDEX VALUE
STOP.M          150.000  :LAST INDEX VALUE
STEP.M         0.100000  :STEP
NULL.           -999.25  :NULL VALUE
COMP. 		 ALT sa	 :COMP
WELL.          Well 123  :WELL
FLD.    North Extension  :FLD
LOC.                     :LOC
SRVC.   Wireline Logging Ltd :SRVC
STAT.        Luxembourg  :STAT
CNTY.          Diekirch  :CNTY
DATE.       24-Jun-2013  :DATE
API.                     :API
BIT.IN 		 4.5	 :COMP
#------------------------------------------------------------
~CURVE INFORMATION
DEPT.M                   :DEPTH
CAL.MM                   :CAL
DENS.GR/CCM              :DENS
GR.API                   :GR
DTP.US/FT                :DTP
#------------------------------------------------------------
~PARAMETER INFORMATION
TITL.     Coal Composite :Plot Title
PDAT. 	  Ground Level   :Permanent Datum
RUN.	  Composite	 :Run Number	
#------------------------------------------------------------
~OTHER INFORMATION

#------------------------------------------------------------
~A   DEPT[M]         CAL        DENS          GR         DTP
     100.000     119.430     2.33900     91.6440     98.1000
     100.100     119.415     2.40900     81.8740     102.600
     100.200     119.384     2.38500     57.8390     101.700
     100.300     119.404     2.44700     93.5040     98.4000
     100.400     119.426     2.41600     106.375     91.2000
     100.500     119.366     2.42800     148.500     92.4000
     100.600     119.367     2.40900     87.3020     99.6000
     100.700     119.363     2.38100     79.3930     99.0000
     100.800     119.391     2.42000     71.6400     98.7000
     100.900     119.404     2.43300     75.0520     98.7000
     101.000     119.351     2.43200     82.0300     99.6000
     101.100     119.423     2.41500     89.9380     101.400
     101.200     119.446     2.46000     90.2480     102.000
     101.300     119.376     2.49700     80.3240     96.3000
     101.400     119.415     2.52600     60.0100     86.1000
     101.500     119.392     2.47700     67.7640     79.5000
     101.600     119.451     2.42400     67.7640     80.4000
     101.700     119.429     2.35800     94.7450     95.1000
     101.800     119.334     2.39200     67.7640     103.800
     101.900     119.354     2.37800     94.4350     103.800
     102.000     119.342     2.39000     69.1590     104.400
     102.100     119.389     2.32700     80.9440     102.000
     102.200     119.394     2.32300     89.0070     97.8000
     102.300     119.400     2.34300     54.5830     94.5000
     102.400     119.415     2.34900     57.9940     87.9000
     102.500     119.502     2.40000     70.0890     94.5000
     102.600     119.473     2.40700     71.6400     101.100
     102.700     119.452     2.37300     56.7540     95.4000
     102.800     119.444     2.43000     69.6240     92.7000
     102.900     119.393     2.39000     92.1090     97.5000
     103.000     119.430     2.44900     71.3300     102.300
     103.100     119.452     2.38100     68.3840     101.700
     103.200     119.436     2.41500     61.8710     101.700
     103.300     119.477     2.40700     100.172     100.200
     103.400     119.535     2.35100     82.4950     98.4000
     103.500     119.476     2.39100     103.428     99.6000
     103.600     119.454     2.42700     101.258     99.9000
     103.700     119.503     2.36900     80.4790     99.0000
     103.800     119.506     2.39700     120.951     100.800
     103.900     119.464     2.37600     57.9940     99.0000
     104.000     119.630     2.42600     75.6720     90.6000
     104.100     119.613     2.42000     61.5610     85.2000
     104.200     119.577     2.41500     103.273     93.6000
     104.300     119.064     2.34900     103.273     101.700
     104.400     118.806     2.39300     79.0830     102.000
     104.500     118.342     2.34500     99.7070     99.9000
     104.600     118.404     2.36900     94.2800     99.9300
     104.700     118.404     2.40600     88.5420     98.1000
     104.800     118.520     2.43600     68.2290     81.0000
     104.900     118.436     2.49100     34.1140     65.7000
     105.000     118.386     2.51700     71.1750     64.8000
     105.100     118.850     2.51800     54.7380     65.7000
     105.200     119.403     2.53400     66.8330     72.9000
     105.300     119.274     2.47400     96.7610     92.1000
     105.400     119.118     2.42700     88.8520     105.300
     105.500     119.109     2.44500     86.8360     102.000
     105.600     119.015     2.38500     67.4530     98.7000
     105.700     118.893     2.38000     62.3360     86.7000
     105.800     119.395     2.48300     75.6720     85.2000
     105.900     119.425     2.48200     81.0990     99.9000
     106.000     119.378     2.36400     101.102     102.000
     106.100     118.599     2.37300     79.0830     99.3300
     106.200     118.620     2.37900     83.2700     99.9000
     106.300     118.621     2.40000     59.3900     104.700
     106.400     118.558     2.41700     87.7670     102.600
     106.500     118.549     2.38500     67.1430     102.000
     106.600     118.594     2.45000     74.4310     100.800
     106.700     118.529     2.38100     81.4090     96.3000
     106.800     118.632     2.37400     76.2920     99.0000
     106.900     118.593     2.41900     78.1530     103.500
     107.000     118.615     2.35900     80.4790     102.900
     107.100     118.565     2.38700     78.3080     102.000
     107.200     118.630     2.34100     86.5260     94.5000
     107.300     118.587     2.36600     55.6680     92.7000
     107.400     118.561     2.38700     109.941     103.200
     107.500     118.599     2.35100     77.5330     107.100
     107.600     118.586     2.38900     88.2320     103.800
     107.700     118.561     2.35400     100.172     103.500
     107.800     118.650     2.45000     124.517     102.900
     107.900     118.515     2.36300     95.9850     102.300
     108.000     118.623     2.41100     89.7830     95.1000
     108.100     118.628     2.41200     91.1780     81.3000
     108.200     118.683     2.41700     61.2510     71.7000
     108.300     118.668     2.45500     57.2190     72.0000
     108.400     118.618     2.40900     51.4820     85.8000
     108.500     118.234     2.34100     79.0830     103.200
     108.600     118.280     2.40300     83.1150     103.500
     108.700     118.287     2.35500     89.3180     100.500
     108.800     118.234     2.34300     72.7260     99.9000
     108.900     118.232     2.40000     85.9060     103.500
     109.000     118.214     2.39800     69.1590     104.100
     109.100     118.186     2.34500     86.0610     103.500
     109.200     118.269     2.33600     69.9340     103.500
     109.300     118.268     2.34900     63.2670     102.030
     109.400     118.279     2.39000     87.6120     100.500
     109.500     118.270     2.32300     84.5110     104.400
     109.600     118.172     2.35300     78.6180     103.500
     109.700     118.267     2.35100     94.4350     97.8000
     109.800     118.225     2.40500     70.0890     93.0000
     109.900     118.267     2.34700     75.2070     96.9000
     110.000     118.247     2.38900     55.9790     93.3000
     110.100     118.794     2.36900     73.0360     87.6000
     110.200     118.769     2.35700     86.2160     94.8000
     110.300     118.728     2.38300     99.0870     99.6300
     110.400     118.741     2.32800     73.9660     105.300
     110.500     118.754     2.35000     61.2510     102.600
     110.600     119.007     2.42400     73.8110     91.8000
     110.700     120.223     2.35800     76.2920     88.2000
     110.800     120.008     2.42000     89.4730     99.0000
     110.900     119.180     2.44000     72.7260     101.400
     111.000     118.906     2.40700     82.0290     80.7000
     111.100     118.826     2.35000     98.1560     84.0000
     111.200     118.239     2.41600     96.6060     104.100
     111.300     118.228     2.40400     73.8110     100.200
     111.400     118.279     2.39000     99.7070     86.1000
     111.500     118.456     2.42700     99.5520     77.7000
     111.600     118.926     2.46300     89.0070     93.6000
     111.700     118.884     2.37100     99.5520     105.900
     111.800     118.956     2.32500     105.444     105.900
     111.900     118.991     2.37600     74.7410     98.7000
     112.000     119.064     2.45800     99.7070     87.0000
     112.100     118.993     2.42100     77.9980     93.3000
     112.200     119.011     2.48700     101.102     105.300
     112.300     119.224     2.47300     71.7950     96.6000
     112.400     120.278     2.48500     61.4060     81.0000
     112.500     119.962     2.57000     50.5510     81.6000
     112.600     119.736     2.57600     61.0960     81.0000
     112.700     119.832     2.40200     83.1150     84.3000
     112.800     119.780     2.43400     86.6810     100.200
     112.900     119.712     2.37300     98.0010     105.300
     113.000     119.769     2.40200     98.3110     103.800
     113.100     119.756     2.37000     83.2700     102.600
