#------------------------------------------------------------
~VERSION INFORMATION
VERS.               2.0  :CWLS LOG ASCII STANDARD - VERSION 2.0
WRAP.                NO  :ONE LINE PER DEPTH STEP
#------------------------------------------------------------
~WELL INFORMATION
STRT.M          100.000  :FIRST INDEX VALUE
STOP.M          150.000  :LAST INDEX VALUE
STEP.M         0.100000  :STEP
NULL.           -999.25  :NULL VALUE
COMP. 		 ALT sa	 :COMP
WELL.          Well 123  :WELL
FLD.    North Extension  :FLD
LOC.                     :LOC
SRVC.   Wireline Logging Ltd :SRVC
STAT.        Luxembourg  :STAT
CNTY.          Diekirch  :CNTY
DATE.       24-Jun-2013  :DATE
API.                     :API
BIT.IN 		 4.5	 :COMP
#------------------------------------------------------------
~CURVE INFORMATION
DEPT.M                   :DEPTH
CAL.MM                   :CAL
DENS.GR/CCM              :DENS
GR.API                   :GR
DTP.US/FT                :DTP
#------------------------------------------------------------
~PARAMETER INFORMATION
TITL.     Coal Composite :Plot Title
PDAT. 	  Ground Level   :Permanent Datum
RUN.	  Composite	 :Run Number	
#------------------------------------------------------------
~OTHER INFORMATION

#------------------------------------------------------------
~A   DEPT[M]         CAL        DENS          GR         DTP
# ...
     139.600     116.869     2.37800     95.5200     90.0000
     139.700     116.733     2.39800     75.3620     90.0000
     139.800     116.855     2.37600     100.172     90.0000
     139.900     116.869     2.39100     75.8270     88.5000
     140.000     116.784     2.41300     61.0960     87.0000
     140.100     116.882     2.42000     78.4630     88.2000
     140.200     116.858     2.38700     86.2160     87.0000
     140.300     116.762     2.40000     69.9340     86.7000
     140.400     116.682     2.39500     59.3900     86.4000
     140.500     116.728     2.37100     89.6280     87.0000
     140.600     116.622     2.38300     68.0740     87.0000
     140.700     116.457     2.39700     84.3550     87.0000
     140.800     116.377     2.40400     66.8330     82.8000
     140.900     116.466     2.44200     70.0890     79.2000
     141.000     116.304     2.38900     78.6180     80.1000
     141.100     116.313     2.40100     57.8390     86.4000
     141.200     116.408     2.42700     67.4530     90.0000
     141.300     116.398     2.44100     65.1270     88.2300
     141.400     116.424     2.38800     74.8960     88.2000
     141.500     116.414     2.41600     95.0550     86.7300
     141.600     116.456     2.40000     62.0260     86.4000
     141.700     116.442     2.43000     65.9030     89.7000
     141.800     116.089     2.39600     65.1270     88.2000
     141.900     116.052     2.37400     58.4600     81.3000
     142.000     116.072     2.43800     53.8080     79.2000
     142.100     116.040     2.47400     69.6240     80.4000
     142.200     116.079     2.47400     49.4660     79.8000
     142.300     116.056     2.51600     42.6430     80.4000
     142.400     116.014     2.42100     44.8140     81.6000
     142.500     115.995     2.42100     52.5670     81.0000
     142.600     115.983     2.40200     48.6900     78.3000
     142.700     116.005     2.43400     41.8680     80.4000
     142.800     115.985     2.43300     56.4440     86.1000
     142.900     116.035     2.37800     58.9250     90.3300
     143.000     115.827     2.37200     51.3270     90.0000
     143.100     115.931     2.38100     47.9150     84.3000
     143.200     116.443     2.38200     58.6150     76.5000
     143.300     117.180     2.42200     64.9720     76.8000
     143.400     117.227     2.40200     42.3330     85.8000
     143.500     117.238     2.38800     69.9340     91.5000
     143.600     116.628     2.38600     64.3520     85.8000
     143.700     116.637     2.36900     50.7060     80.7000
     143.800     116.651     2.40500     66.0580     85.5000
     143.900     116.614     2.38300     63.2670     83.7000
     144.000     116.566     2.41600     52.5670     85.8000
     144.100     116.789     2.37400     37.8360     87.0000
     144.200     117.001     2.38000     64.6620     83.1300
     144.300     116.800     2.43300     44.6590     81.3000
     144.400     116.869     2.42800     46.5190     77.1000
     144.500     116.842     2.46500     55.2030     73.2000
     144.600     116.889     2.51400     43.5730     72.9000
     144.700     116.901     2.47400     51.1710     73.8000
     144.800     116.829     2.41300     73.3460     84.3000
     144.900     116.767     2.41300     54.1180     89.1000
     145.000     116.797     2.39800     52.5670     86.4000
     145.100     116.927     2.44200     51.7920     83.4000
     145.200     117.047     2.36900     52.8770     81.3000
     145.300     117.034     2.39600     51.0160     84.3000
     145.400     116.910     2.39300     45.7440     87.9000
     145.500     117.047     2.35800     42.3330     87.0000
     145.600     117.151     2.35100     64.9720     85.5000
     145.700     117.090     2.32000     72.5700     87.3000
     145.800     117.080     2.34500     70.7100     88.8000
     145.900     117.029     2.33900     57.8390     89.1000
     146.000     117.070     2.40200     53.4970     88.8000
     146.100     117.171     2.36500     72.5700     89.4000
     146.200     117.067     2.34600     80.7890     88.5000
     146.300     117.108     2.41000     74.5860     90.0000
     146.400     117.045     2.40900     59.5450     89.4000
     146.500     117.129     2.43300     41.0920     86.1000
     146.600     117.142     2.42000     50.0860     84.6000
     146.700     117.028     2.44200     72.7250     81.9000
     146.800     117.079     2.38000     57.8390     81.6000
     146.900     117.112     2.39000     71.9500     85.5000
     147.000     117.119     2.39800     62.1810     87.0000
     147.100     116.955     2.41000     75.8270     88.2000
     147.200     116.908     2.37700     66.5230     89.7000
     147.300     116.935     2.37200     94.9000     88.5000
     147.400     116.877     2.44600     75.0510     84.9000
     147.500     116.477     2.44600     60.3200     80.4000
     147.600     116.461     2.46900     51.0160     80.4000
     147.700     116.502     2.50800     55.5130     85.5000
     147.800     116.403     2.48000     68.0740     83.1000
     147.900     116.390     2.42700     53.3420     73.5000
     148.000     116.309     2.50800     39.0760     73.2000
     148.100     117.273     2.45200     46.5190     77.7000
     148.200     117.439     2.43400     66.8330     80.1000
     148.300     117.597     2.39300     88.0770     82.2000
     148.400     117.630     2.43300     82.9600     83.4000
     148.500     117.685     2.41100     70.5550     84.6000
     148.600     117.651     2.42800     66.2130     85.5000
     148.700     117.165     2.39600     89.3170     85.5000
     148.800     116.960     2.46700     55.3580     85.2000
     148.900     117.000     2.47000     71.1750     84.3000
     149.000     117.068     2.42300     54.1180     76.8000
     149.100     117.026     2.40700     59.5450     78.9000
     149.200     117.031     2.38000     72.8810     86.1000
     149.300     117.046     2.41000     59.2350     85.5000
     149.400     117.061     2.41800     73.5010     84.6000
     149.500     117.102     2.38700     83.4250     85.8000
     149.600     117.040     2.38300     56.1330     87.3000
     149.700     116.704     2.40000     67.2980     87.3000
     149.800     116.718     2.36300     74.4310     87.9000
     149.900     116.803     2.44100     94.5900     89.1000
     150.000     116.366     2.44300     85.9060     89.1000
