#------------------------------------------------------------
~VERSION INFORMATION
VERS.               2.0  :CWLS LOG ASCII STANDARD - VERSION 2.0
WRAP.                NO  :ONE LINE PER DEPTH STEP
#------------------------------------------------------------
~WELL INFORMATION
STRT.M          100.000  :FIRST INDEX VALUE
STOP.M          150.000  :LAST INDEX VALUE
STEP.M         0.100000  :STEP
NULL.           -999.25  :NULL VALUE
COMP. 		 ALT sa	 :COMP
WELL.          Well 123  :WELL
FLD.    North Extension  :FLD
LOC.                     :LOC
SRVC.   Wireline Logging Ltd :SRVC
STAT.        Luxembourg  :STAT
CNTY.          Diekirch  :CNTY
DATE.       24-Jun-2013  :DATE
API.                     :API
BIT.IN 		 4.5	 :COMP
#------------------------------------------------------------
~CURVE INFORMATION
DEPT.M                   :DEPTH
CAL.MM                   :CAL
DENS.GR/CCM              :DENS
GR.API                   :GR
DTP.US/FT                :DTP
#------------------------------------------------------------
~PARAMETER INFORMATION
TITL.     Coal Composite :Plot Title
PDAT. 	  Ground Level   :Permanent Datum
RUN.	  Composite	 :Run Number	
#------------------------------------------------------------
~OTHER INFORMATION

#------------------------------------------------------------
~A   DEPT[M]         CAL        DENS          GR         DTP
# ...
     113.200     119.784     2.42600     98.4660     102.600
     113.300     119.694     2.37300     101.102     101.700
     113.400     119.726     2.43900     81.2540     99.6000
     113.500     119.802     2.42500     68.2290     97.2000
     113.600     119.701     2.43400     98.6210     93.3000
     113.700     119.793     2.42100     94.4350     94.8000
     113.800     119.813     2.40900     82.3400     99.0000
     113.900     119.924     2.37900     87.6120     93.6000
     114.000     119.904     2.42000     96.2950     93.3000
     114.100     120.039     2.43200     91.7990     97.5000
     114.200     119.899     2.37000     79.5480     96.6000
     114.300     119.975     2.42900     63.4220     94.5000
     114.400     119.892     2.39600     80.7890     94.8000
     114.500     119.945     2.42700     62.8010     96.9000
     114.600     119.830     2.41500     78.7730     96.0000
     114.700     119.818     2.42900     84.9760     95.4000
     114.800     119.992     2.45000     84.0450     97.5000
     114.900     119.921     2.42900     75.2070     98.7000
     115.000     119.873     2.40200     96.6060     100.830
     115.100     119.869     2.38800     89.6280     100.800
     115.200     119.969     2.40700     94.4350     100.500
     115.300     119.906     2.36400     94.1250     100.500
     115.400     119.946     2.39800     85.5960     96.9000
     115.500     119.870     2.40000     81.7190     98.4000
     115.600     119.970     2.37300     75.6720     104.400
     115.700     119.978     2.41100     91.3330     108.000
     115.800     119.888     2.36600     126.843     108.600
     115.900     119.877     2.36000     90.4030     105.300
     116.000     119.873     2.39400     99.7070     106.800
     116.100     119.953     2.38500     99.2420     111.000
     116.200     119.938     2.36300     72.7260     105.930
     116.300     120.658     2.40600     103.118     103.500
     116.400     120.766     2.38400     98.6210     110.400
     116.500     120.484     2.41400     101.413     114.300
     116.600     120.076     2.38800     82.0290     108.000
     116.700     120.067     2.42700     96.6060     94.2000
     116.800     120.435     2.45600     86.2160     95.4000
     116.900     120.351     2.49700     81.2540     107.700
     117.000     120.319     2.42900     111.647     101.100
     117.100     120.336     2.34300     120.641     101.100
     117.200     120.301     2.39900     124.827     112.830
     117.300     120.356     2.35600     113.663     117.000
     117.400     120.283     2.34800     103.428     114.300
     117.500     120.336     2.35100     122.191     111.600
     117.600     120.388     2.38200     111.337     108.000
     117.700     120.362     2.39300     124.982     109.800
     117.800     120.356     2.38200     118.005     108.330
     117.900     120.356     2.41300     113.508     108.600
     118.000     120.264     2.34800     106.375     110.400
     118.100     120.387     2.35000     119.555     109.800
     118.200     120.426     2.39200     102.188     107.730
     118.300     120.771     2.35500     111.957     110.400
     118.400     120.718     2.35800     131.340     117.600
     118.500     120.701     2.37800     131.805     117.000
     118.600     120.800     2.31300     115.989     114.600
     118.700     121.171     2.32000     121.571     121.200
     118.800     121.585     2.29200     129.169     121.500
     118.900     121.541     2.27600     110.561     113.100
     119.000     120.732     2.30300     120.641     114.000
     119.100     119.983     2.24600     101.568     117.000
     119.200     119.578     2.20500     100.172     121.500
     119.300     119.692     2.01800     82.6500     124.500
     119.400     119.565     1.84200     55.2030     123.300
     119.500     121.386     1.53700     44.9690     126.000
     119.600     122.696     1.40600     55.5130     126.900
     119.700     120.817     1.33700     64.1970     125.400
     119.800     120.446     1.36700     79.0830     126.900
     119.900     120.142     1.37800     59.5450     127.800
     120.000     120.307     1.33600     41.2470     129.900
     120.100     120.532     1.31500     40.3170     129.900
     120.200     119.697     1.34100     39.8520     129.600
     120.300     119.034     1.34000     40.7820     130.500
     120.400     118.504     1.32900     26.6710     132.900
     120.500     118.388     1.31200     28.9970     131.400
     120.600     119.286     1.28700     28.3770     127.200
     120.700     119.428     1.25800     27.1360     126.000
     120.800     120.922     1.26800     14.4210     129.300
     120.900     121.083     1.26200     10.5440     128.100
     121.000     125.292     1.26300     23.2600     127.200
     121.100     121.861     1.27700     20.6240     127.200
     121.200     121.429     1.33200     40.4720     130.200
     121.300     121.436     1.50500     60.4750     136.800
     121.400     123.881     1.62900     85.4410     142.500
     121.500     119.353     1.65200     58.6150     142.500
     121.600     121.005     1.56700     58.4590     136.500
     121.700     133.153     1.40100     45.2790     142.500
     121.800     122.716     1.35300     22.4840     135.600
     121.900     122.688     1.32600     24.6550     119.100
     122.000     122.860     1.31200     20.4690     124.500
     122.100     123.467     1.30700     26.9810     130.830
     122.200     120.859     1.34000     45.7440     130.500
     122.300     121.431     1.35400     30.5480     129.300
     122.400     120.733     1.38400     51.3260     129.000
     122.500     121.277     1.45300     64.6620     128.100
     122.600     121.803     1.46400     44.9690     133.200
     122.700     122.873     1.46600     43.5730     131.700
     122.800     121.308     1.44300     46.5190     125.700
     122.900     122.160     1.40200     80.6340     130.800
     123.000     120.530     1.40600     54.7380     132.900
     123.100     120.203     1.51800     54.8930     132.030
     123.200     122.594     1.60300     90.4030     137.400
     123.300     125.671     1.64100     99.7070     147.300
     123.400     118.771     1.63900     64.5070     130.200
     123.500     118.784     1.50900     57.5290     119.100
     123.600     122.692     1.60700     61.2510     122.400
     123.700     121.775     1.84000     89.3170     132.900
     123.800     124.502     1.94500     122.191     144.900
     123.900     125.655     1.93100     106.375     147.900
     124.000     121.656     1.70600     59.7000     129.900
     124.100     122.799     1.47700     57.8390     117.000
     124.200     123.717     1.41000     37.2160     123.300
     124.300     124.912     1.54200     58.3040     127.200
     124.400     121.177     1.70700     89.0070     123.000
     124.500     123.329     1.95500     69.6240     124.800
     124.600     120.175     2.10200     94.5900     120.000
     124.700     120.272     2.22400     108.080     111.300
     124.800     119.482     2.34500     137.698     113.700
     124.900     119.501     2.31700     147.467     108.000
     125.000     119.406     2.33600     112.577     104.700
     125.100     119.932     2.37600     119.710     107.400
     125.200     119.969     2.31500     73.5010     110.100
     125.300     119.889     2.32700     66.9880     103.200
     125.400     119.832     2.39000     97.5360     94.8000
     125.500     119.983     2.42700     77.2220     92.1000
     125.600     119.967     2.44700     81.2540     94.8000
     125.700     119.979     2.42300     77.0670     100.800
     125.800     119.999     2.36600     100.172     101.100
     125.900     119.536     2.38400     74.2760     99.6000
     126.000     119.516     2.36600     89.4720     99.6300
     126.100     119.580     2.41700     102.963     99.6000
     126.200     119.498     2.40800     80.9440     96.3000
     126.300     119.494     2.34600     124.672     94.2000
